[
  {
    "place_id": "ChIJE-MUJhg8lw0RKc5eJfbWODE",
    "name": "Les Pyramides Merzouga Campground",
    "location": {
      "lat": 31.0882836,
      "lng": -4.007272
    },
    "price_level": null,
    "photo_reference": "AWU5eFiyVOUNzV1fHvLeu-huzfeF4RhekInGAKd1gbXfxmSz9qU_vRYc-bFbtqJm9ytJqi2YRxGnil8VhFGEdx6BMHdmzcLw-Vgvo1P6WCw9GekhJ1BGdUE_LOKbR7ji5YMqYTXmaC9_mn_Ef7c354j7UZ7Ghbq4YL5Pi2fP915B1lG2ocM"
  },
  {
    "place_id": "ChIJRywQznxivg0RO8FIFDN3qJI",
    "name": "saharahistoricfortress.com",
    "location": {
      "lat": 29.8006367,
      "lng": -5.719824099999999
    },
    "price_level": null,
    "photo_reference": "AWU5eFgBU2dQ3yaWJ6etI2q54VeGwYERV5An2lOwWvnGOm2mLz5CpAIFbU2WWAuZ-J4fLAvq5P32E3R__U82wcMW6GVww7SJ3ShwseSXRzQjRUzlVcK4dSVizFPTrc_9LkujMuHMqFAdVRh9b-cOI6fpDw9fkCh-7rRQ_WB9w3AaQJhlkmUT"
  },
  {
    "place_id": "ChIJq8yKMxOTCw0RdiLkUaSBCvg",
    "name": "Tahadart Camping & Holiday Homes",
    "location": {
      "lat": 35.5689179,
      "lng": -5.9907511
    },
    "price_level": null,
    "photo_reference": "AWU5eFjc0Xy2v0LlXefi13bzGHLVITYy_qMO97XQpnh571RUXIW9iX-LH7JoMw-ucFoJUjp51813YfAA2iSg6OD-HC_CpobW9ME0F3JRG0UCHkFehIqYF5uUWX1YVI_PcD_dkMfeQdj-_vUv7BVjVrNkDsaYnBOZHaaH-myFBv6v-ae2Gi0"
  },
  {
    "place_id": "ChIJ7Qj-EQ3rCg0RRhTt9daddbs",
    "name": "Camping Panorama 900",
    "location": {
      "lat": 34.7515009,
      "lng": -5.477632799999999
    },
    "price_level": null,
    "photo_reference": "AWU5eFgtP6DzdAv3Pujd0El3NFEQpjmNPUe9ChCZnRtNk7kHmlN3CLZwWQtXMyxShYTpifoo244MOmIGos3BvMXnmg_DIW-dwbgEH9rvy6g-JzYtH7xInrnc1R0DM0W-ve-Oo58IM-QzNz7S-RqXcGklUhcvtjsUWbIpsJql1v879Q_6h8x_"
  },
  {
    "place_id": "ChIJWYglhal1sA0RdY72tnKI0FE",
    "name": "Café & Camping Amalo",
    "location": {
      "lat": 31.0117916,
      "lng": -7.831696099999998
    },
    "price_level": null,
    "photo_reference": "AWU5eFhPJLMJEvB-WZ7ZXBrpZ0zOVgDf5ymXm0xaDEIKbHkJXutkpZ1HN4NhGP8CDd9Xv-MiASo0tSkBrw7M5zv627e_AzOKFna0WPa4KBq_LU7TCYNsWcod8gzDuNwALULdFKqOm7ZJuJaj8g2mWy6lV270uBmqvc96rCijMUbSGQhPbnlB"
  },
  {
    "place_id": "ChIJU6Fv_UI2lw0Re-95BNkzl1Q",
    "name": "Sahara Desert Camping - Morocco - Erg Chebbi - Merzouga",
    "location": {
      "lat": 31.1732753,
      "lng": -3.8476714
    },
    "price_level": null,
    "photo_reference": "AWU5eFhFx4c6QS-z-WKped9IfYl9kLur5IK2oXpuzORWH7o-gzPLJH-hKl11e_YZlLmSEW3GpHYzkMiaKRIzysZCcztI4yOz5f448TdSxDz0P1lHP9FRfNTqhd78rO3DyZ-FYfq-y2Hsc7UwpRf2ml3cq2Q9lxXbTikFF9XmcXpEWwcRPiSF"
  },
  {
    "place_id": "ChIJu4F6MFijnQ0RaxAMjRQXdyU",
    "name": "Benyakoub",
    "location": {
      "lat": 34.0234893,
      "lng": -3.2478384
    },
    "price_level": null,
    "photo_reference": "AWU5eFgVxUl1NW2AorvzIiy87Ahzng00MUOOk0ZUnjaym1R-NayCLHaP8z2snNun2dv3sBjetX4DX3KkY368l8DmbAKgjGb3TZJDzwhbV-fls5_dg1TryeItJJa2Y8FoqhEOm_JL06SQJn1NIvg0idjpwyLXil6ZJn1MU9ccCRMdu2KSUo7d"
  },
  {
    "place_id": "ChIJxRkEKbE2vA0RYKIGRI8r8VE",
    "name": "Camping Palmeraie d'Amezrou",
    "location": {
      "lat": 30.3145856,
      "lng": -5.8296397
    },
    "price_level": null,
    "photo_reference": "AWU5eFgpf0ZigXt3maUTaJk_Y0q-_ROC7Rgu58Vp_gnt0Mx6As-pw-EtqEk1jsdlDZTEG0lRBnKps608RwiD3nTO0pUkgUeg0azcax2lB1-ScWMfPjSROMtUYqa8-JeQTBLKgOwR3upQOuXbkPiEhL35kjhRjyqEM-ivZsyKzeW0nsWCLome"
  },
  {
    "place_id": "ChIJE1WASruAsw0RAImCCWP828M",
    "name": "Camping Aglou Plage",
    "location": {
      "lat": 29.8039762,
      "lng": -9.8278119
    },
    "price_level": null,
    "photo_reference": "AWU5eFiOIjwiYQ_h6HUTtFB8mTQJzFpsZE0auLgaignq5pGcr-i3Ys12B16_lBY9zYWRcnK39u17GVamtNO8ROq6ueQzuzy17bAVxiR5te4Mb3SVPxbwJrP3SlMnmvOUXHdVXO47lOBwMSCd5kev5M8GVJh1sMcPUM5vOvcfpFCXr3o3RJml"
  },
  {
    "place_id": "ChIJ6ezB0zIKSgwR4GCpZAYrzj8",
    "name": "Area sosta camper - Laâyoune-Boujdour-Sakia El Hamra",
    "location": {
      "lat": 28.20815,
      "lng": -11.784167
    },
    "price_level": null,
    "photo_reference": "AWU5eFjefVbsYEFS971oncU-DQscR96cPKya5y7aBE2beYYrwz37R9Fxb2ZJsaVmxeH0UbtI-NyQ43O4ci9rpytzp9hTaNH_tBy4CGz9S5bsidPh4VR7k3LzDggc3_1Eu68ZXFR9ScAw1GxKdoO4K7nXfCgEUUDG0_Mq4sQ5M2g8dkjS0HGJ"
  },
  {
    "place_id": "ChIJQ_socoJ7rw0RbyeO826c8dY",
    "name": "Morocco",
    "location": {
      "lat": 32.2359364,
      "lng": -7.953837799999999
    },
    "price_level": null,
    "photo_reference": null
  },
  {
    "place_id": "ChIJZfXCrcq_vA0RtESKAjhTKnI",
    "name": "Camping Chabab Saghro",
    "location": {
      "lat": 31.1993,
      "lng": -6.115751899999999
    },
    "price_level": null,
    "photo_reference": "AWU5eFg7s5mbq5NkClKN_OZLf0uLiJQwPdoXC4_QzUQgzbKYo9-GiuC5kzJyjmdLE8wZrQ0JCJNOE-cKbHBYFym7-ecZjwYCpxMQvOKjTlK1ULTDeZ-Jk5JccSUTgDZC15mS0tyHjTkSxjNer1EfDGl6iBAIaBvXSp1OVeqi_rGZI9-keYXB"
  },
  {
    "place_id": "ChIJi_bmpXJRCg0RwQ7Wp3awop8",
    "name": "Camping",
    "location": {
      "lat": 34.9312098,
      "lng": -5.8182773
    },
    "price_level": null,
    "photo_reference": "AWU5eFgvGw9PWeE0MXGlHZq2dLhcJLIhigF4MR6l22LcaNXku84i5bdg8y1aNDer43DSAjp7EKqZiESvTXRLVNbEgD0TSYeulyGrWusFmOWqjDv5x0RSlEseqmreynv_HqwQXRq73aAM7kz4uXSOv36Im9o9JCldtdYisk_r2oHUQtORBccm"
  },
  {
    "place_id": "ChIJI6OGwLdepw0RlP6kTMv3ITU",
    "name": "Camping Mehdia",
    "location": {
      "lat": 34.2595436,
      "lng": -6.6728334
    },
    "price_level": null,
    "photo_reference": "AWU5eFiI-lNuO_VcPLvr3TJIw2GzVJidLsKa237mp4yMzcliMN_ftfPvCfy_KIJejxrbU-GwXEccenmxczeO6u8WIdTkBfgPcA8frmofSkH_HaCByysWLhY5WmwPPPbL8SRJRjDqWdRrkKzYqxuUkscwMezvxStrXJ4zXZCSvleV-lUqZ1P5"
  },
  {
    "place_id": "ChIJJcLd-3lHlw0R6CCxkiZoKno",
    "name": "Luxury Oasis Camp",
    "location": {
      "lat": 31.213676,
      "lng": -3.9518578
    },
    "price_level": null,
    "photo_reference": "AWU5eFh4MYomYv4hJG4Ff-ukAhwj8HjQDigA2YHAgx1MlyMYR34ziZOG-2U3TAra59M65bxycnfWJFZ5TPR6tUvMvsgomw_kVx05RRhIyi1PNA2ZGIJb3DeEkuhua562ZxuDDywHJC2K3X3N0H6Sf29vVs42NYyQ0qF2Iar041uhAEZmSZPR"
  },
  {
    "place_id": "ChIJK_I7hSSxtg0RBfUe1huuwQU",
    "name": "Camping la vallée d'ammelne",
    "location": {
      "lat": 29.7556729,
      "lng": -8.9585106
    },
    "price_level": null,
    "photo_reference": "AWU5eFiiI5HtuSaWMJpFu5F3a0sYAzAvW0oTHDUWPxdmTNXTW6o-VoA58ub1oJFIG-1lY_I2T4aB3Ix2xGU_XWkQXwCbzCAQ__j3eqRs6Iehhfz5dkWLnUmxDBx2npKjfX9a3veTpf5JAPGdq5HPPbLienW_XUG_RPbwZQpIE_b1SL6p_rME"
  },
  {
    "place_id": "ChIJoRw_RwndoA0ReHktmKvLaXw",
    "name": "Camping CAR space",
    "location": {
      "lat": 33.81795049999999,
      "lng": -6.103927499999999
    },
    "price_level": null,
    "photo_reference": "AWU5eFgUP8ZcmuP4RhPOvv_BRNdVUMBzJvFmD1pFLHA19Rqx9JZ0C9H45zYCRD3WjB1xSi165pDAzx0zFxX7D8j8pNwh5XtQoPVh2bME0rR89JaT8vS-IaKtxHEQ5HFw0ZdT1fweRNGuCpJdN6NfbRFHfdG8-eX3Iqg9RQk35I36bGW3r_Rz"
  },
  {
    "place_id": "ChIJf3uMy0-Bsw0RU0RBsHH5t9c",
    "name": "SOUS LES PALMIERS BLEUS SARL",
    "location": {
      "lat": 29.6307688,
      "lng": -9.534540999999999
    },
    "price_level": null,
    "photo_reference": "AWU5eFhJJbSQ0SKutfu7KjMBsR9AA9favBzbNc2uq_riX_Iimw1W65Na40AmHCifoOeFWacgFP-RUiL2cYzh8xmLDwVCclRb5QTI99NRcyrxQqiqqXdSwMvCir7tshnfrNnSGd7SnFgIdh06FwjwgwOzJ7wrxihcTsVxDKPpsq1rtKlQ7oUC"
  },
  {
    "place_id": "ChIJ9XcDFxetrg0RKWFf4m99NUA",
    "name": "Camping Laguna Park Oualidia",
    "location": {
      "lat": 32.7252912,
      "lng": -9.0440236
    },
    "price_level": null,
    "photo_reference": "AWU5eFhoFCCEn2eMz7pV2Vr1b8HztJrMLKap1PwRB2HO2jKnxpdFZDEj85Ez3rwMLVnS3HFAAmGG2SBQTBhpuavgEQXM3pdZRdW30ugvE5KYPEKFJ2S0l_KqLvypoPiy8iU0LfdMVNqsH6Lmbr1GVrTn2mJ9obRee9yduOnHvVlFKLMwf2XR"
  },
  {
    "place_id": "ChIJMYAD86iktg0R_a9yitaQ4iE",
    "name": "Camping Vallée Tarsaoute",
    "location": {
      "lat": 29.5781748,
      "lng": -9.0224867
    },
    "price_level": null,
    "photo_reference": "AWU5eFjIGFdKH5esXXf22z8QPMhMWaH2bL-ia8UgS_8M37DIRLnaP8sFCXkOz8lBmhdjCyaGzS_K01uIOmJdTWAXPtCrgfkAAY5UcJIIr6LAs2ArAG6PrVmzUyz2mBcQvCFF7blI6zmPUygB2hZy8RyBjRT40N8H7V5kRZ7anQcOyVCm_irW"
  },
  {
    "place_id": "ChIJoVHFBWWNpA0RhrXd9tBDRAI",
    "name": "Camping / Auberge Zebra",
    "location": {
      "lat": 32.005928,
      "lng": -6.719588
    },
    "price_level": null,
    "photo_reference": "AWU5eFimlt0JlAbZcqMwfdsusp73wrKVJtv9hX2h1nksvSb238zkceDr52pByhXLDZR_HSGG2yft8gkkXX_FQ_qnaFSZPYBSxNhelcTvpkm4APbWkacPvGmQtRzZdn6Z2EhSH8yrq3nunJ6mZh5p98WRVeKRzv5EZI6sfMnYDb06bIgMyoEp"
  },
  {
    "place_id": "ChIJvX0Sv6mJvg0R1hGq-LE4D8Q",
    "name": "Camping La Boussole du Sahara",
    "location": {
      "lat": 29.828566,
      "lng": -5.732671
    },
    "price_level": null,
    "photo_reference": "AWU5eFhyrmkKvWnYyhEYIqDR3ApP8e9cNCz-J175TTUS9sppdzvoRcvF103fm-p4WYFqbT4fnFGqFjaPnYCqBpY14L6AcwoXFMHOj-458mNxTY8mO4EsuG5gy9wkfbWB8PhIrcP7BcDM3qrghLpGVV24wj4NfJT-I6o-qPz5yX8SXx5ZlaLd"
  },
  {
    "place_id": "ChIJ6xUvcBXtrw0RNDNGzA593Bg",
    "name": "Camping El ferdaous",
    "location": {
      "lat": 31.7191875,
      "lng": -7.983187500000001
    },
    "price_level": null,
    "photo_reference": "AWU5eFivIGnnGxCTQdX6bLTou6Jp43ls1ptk9-bibcaUA6ETfadpfuK4sjF9x7YA3V5zp71SC7k4Uzeak1lVmnb6dNj7TX0pLg9Dju89TS-wRyfMc1yChM3tVmH599lfW_AuAOBm-FMcCN9xuYFBLOAKgjKIVTuq_pTmd-_p4OsF9ziYRsBF"
  },
  {
    "place_id": "ChIJTQh4plnrtA0RgieJoPOYj_A",
    "name": "Camping Sidi Ifni",
    "location": {
      "lat": 29.3851507,
      "lng": -10.1733641
    },
    "price_level": null,
    "photo_reference": "AWU5eFjYjZBixsaqnMW0RI2VzVLcczuFcVwvXZOpPrtthZhMxtBrmu7CSRCHQfTeJsDF9ejyE5I8rkkz4XP8yj1gURU42D8Ht2X3nyheacFuD53CFps8N2ZaP_CDMtly8yyRpxmGmS9gdITlQNDsfGj4sOvQR89Wd0a9QnLAqLLFmL77p_WQ"
  },
  {
    "place_id": "ChIJ-dR3bk2TrQ0RbJNMfieQZhI",
    "name": "Camping des Oliviers",
    "location": {
      "lat": 31.5324066,
      "lng": -9.5474524
    },
    "price_level": null,
    "photo_reference": "AWU5eFjaoVYo44uRcx4Y3adFejgcnWYlV-_Fy8j2fxA9azeW_pTvS6cPh_AtE7u_KDovy0Wy8LM2b-F6l9LjOGLboTw73GcyAjGyZhEyuFbpmzFBI6ScCHfkYSsbwdJotToEwCGU1kKTGARd1JFFzklPalZIBM-t-G5nxwK3AjAmJHx2gtpv"
  },
  {
    "place_id": "ChIJu5o8lUF3vg0Rk-SZBHAmgIU",
    "name": "Camping Les Palmeraies",
    "location": {
      "lat": 29.9709605,
      "lng": -5.5787521
    },
    "price_level": null,
    "photo_reference": "AWU5eFhN55Pkzcq5jbUQICfUKGRIOhhONNvZL6Nqhvr_VE3YjazXwu_f6YRe71dLyD41-cUN8WK389F9NEndbki57_5grqo8Xu6yAQGXe9b_0lM5FvxAyE9EkRoU-3iKEABcARtMlLMPpIVga6C4hXY1eLSWFlQYKqyCwDYGh9l277yu-ut3"
  },
  {
    "place_id": "ChIJ-UuHx7Sxtg0RxqKjGjVjsJU",
    "name": "Camping Tazka",
    "location": {
      "lat": 29.7153091,
      "lng": -8.9864565
    },
    "price_level": null,
    "photo_reference": "AWU5eFi3jUwZRfoV188_756HHP_MYRDnVYupJcwRwOggD8E6wDOERuPIb4uq8Qi-ilYMKk7y3Uf2clV79F2aCXrbd7VjqoUI8_eoeDCNb9V6vZupBZMF8jjVfw9KcFYCIauk2-7tej7V0LZ_AlitA2BUO2jYj_G-qyhGt3-wVqUp8CyFub5u"
  },
  {
    "place_id": "ChIJcUid6Ie0sw0RYM8IneSzAbE",
    "name": "Camping Aourir",
    "location": {
      "lat": 30.4947532,
      "lng": -9.6231923
    },
    "price_level": null,
    "photo_reference": "AWU5eFj00wYSX93ZZuF9tkH-FXBSEjEHGkyJCT_9ExCGoClEPF06j4cbi8G5eWj8PlQMPu_lg_UvRM0KhF60UGafy4r_ULNpBzgNV0ssjUOvH3LYzCvgZ2mEqzVHcs1aeonHf-wF7kCuTuA_fdRNR9scN_QLmfT07mA3EZOaQ8ZHxCH48sYj"
  },
  {
    "place_id": "ChIJ-bA17bvboQ0RguwGiuk6Vd8",
    "name": "Camping Amazigh",
    "location": {
      "lat": 33.44945550000001,
      "lng": -5.1703548
    },
    "price_level": null,
    "photo_reference": "AWU5eFgMBd9dNw0_rc8dBvbiSBdYlhGkyS-3GZGtcrPYTqRph_gd_75ThGspsVxoMEkPGU-HhAV2VHWR_ef2FaI7LBw50wfFJwp3gO1z0F-qZhg5t5umTvtk4RF9iAYK0Frc3_g3jvHg8rpBx0wgILIU7ybz1z-JzwEXEMUemTg1YA4gjSXX"
  },
  {
    "place_id": "ChIJpy4oWpuFdw0R5oYpfZE_HR0",
    "name": "Camping Riad Ocean View",
    "location": {
      "lat": 35.0764712,
      "lng": -2.5860956
    },
    "price_level": null,
    "photo_reference": "AWU5eFgVgvVakwvVo3n-nTcGlvFgpLEJCWaB506LPuqnu_tjJq8HSxNLfNZ4LkU-kK5ooTGRT0s97ERqfqRf3I9I6VrAlfa4JDT-u7o_Od5O7JQfyZ6gbQ7a01ZeDdaWu4j03x3Ebu5zGGsjgjJhNaHXYX2dH6Qn_DH3NFJqKOYhfbAZ3eWr"
  },
  {
    "place_id": "ChIJociSeQTtrw0RdCTP4z7WtHs",
    "name": "Le Relais De Marrakech",
    "location": {
      "lat": 31.7071858,
      "lng": -7.9899717
    },
    "price_level": null,
    "photo_reference": "AWU5eFhICxqc2c-8P0-Wap3UEZMr6JnILIYL-ahkyN_s07mufwpsSO8Rd66DIPu5_dp-8nCrN4PI2QUmKJj5We2W10OTdFu8IwjrH_r0SqNz_ZsUIK6ctzhgl0B10aCWOS54Zb-rvjqyW6WCqZ5DNjSb8x6OwGQlxjTXKgQTZ7cwSaN0WYN5"
  },
  {
    "place_id": "ChIJxRZtd_K_sw0RoDzAau3usoY",
    "name": "Camping La Palmeraie Tifnit - مخيم النخيل بتفنيت",
    "location": {
      "lat": 30.1841115,
      "lng": -9.5871041
    },
    "price_level": null,
    "photo_reference": "AWU5eFiRwGNPK3kFT9I6ZYeYutTGAkkC-lGWOJfWsL-Neig5CrUjzB-FAM6FE4MH9Xtuxy3AizgcQZk6CpWnOAz_FHKxH0rFDeyKVUXFLPHlTX4w9bD1DWUXzaSc9ZEBp1YFFc6VjV_231rt7_vSlmz3mFFXVvzqFnSKIxGGlIgrD4uSTv1L"
  },
  {
    "place_id": "ChIJHXdirRuUrQ0RY7K1JKp39tY",
    "name": "Camping Esprit Nature",
    "location": {
      "lat": 31.5531851,
      "lng": -9.6260216
    },
    "price_level": null,
    "photo_reference": "AWU5eFiKc16qRXMCxZ05YaZW2MNqloacwN5_EnzCslMraik4R3F8BkKY4wqD45viWjHTsfKtvobulftYiYZd4sSKA2D2VBzEtqXKPLe7Sv10szpxZX27tA6sCanq7KO2tklayaW0OcfK00QC8JtGNQzJWPI9_yBXvWQ_Nmlzsr9CUqUs5Ja6"
  },
  {
    "place_id": "ChIJB2p-mL54DA0R_JnyCH2s80k",
    "name": "Camping Miramonte",
    "location": {
      "lat": 35.7909297,
      "lng": -5.8314433
    },
    "price_level": null,
    "photo_reference": "AWU5eFjcjsBfBaWvsQdS0WHucJDBDJ_cJFUaftJPcOtEsShRVoUWoJ7WZlLigHYhS0HiNPeq5Aihc8VNxwsGhaH15qC5NbfVHibjwgZ7roEJ_YUIh9C3dPLEw9M2C8cBeyAWJ96czON79wtYLa77azflV1tRlOIbf5lRHVe7zd-ag5EHvBE"
  },
  {
    "place_id": "ChIJgwuQVr71pA0R87TWxYPP77o",
    "name": "Camping parking LA NATURE",
    "location": {
      "lat": 32.150403,
      "lng": -6.7759228
    },
    "price_level": null,
    "photo_reference": "AWU5eFgrlmj3p2F91hkJ6SiXy8kEa1YlgkxKBg8jyzyI_cJrXkKjTKDCVeQ5_CO69o0ABPwwCfTMMVmobUCbRsmiSdQmPFmcvhOkez74GXsafJDj7IC-8Ek40qvQUYYfb7X-nZr7lY2F_q3iWoIkiyf-slIN9dUMeH5mj_P7wUVe6J_cdJDu"
  },
  {
    "place_id": "ChIJD5RHwYMimg0RqgzoQslCAvM",
    "name": "Rekkam Boudnib",
    "location": {
      "lat": 31.9457479,
      "lng": -3.6156646
    },
    "price_level": null,
    "photo_reference": "AWU5eFjiEWROpk7oitIHXRsg1KiZa5mGaZ31Y8QhUwxPIA8uEU0Vz3djujPvqeJKCbDYaykzfTl3OZ3WewjBslmGtYmQvuAA7NylOwVX6VmsL2vDdSD3Dkh-zC6NjI9BUh-im4fN3zrwYvgef-tYNuBz1mkWApXbfTnFn2CHl6JhvM-itJ9O"
  },
  {
    "place_id": "ChIJA9spFD2OrQ0RpEGIOSLjWhU",
    "name": "Camping & Hotel le Calme",
    "location": {
      "lat": 31.432566,
      "lng": -9.658147999999999
    },
    "price_level": null,
    "photo_reference": "AWU5eFhgyxJmsYU0zflNAzUbl0X3T9wifAzbbtfD66eceQptr4c_KLhEs69vpql1eyJFBBSvBn3dbdiud77wjuo28G7NbtroyCYWGTDS5onSJEvQHiV3rgzIbLxsy2_aRwt5mkzfGf6pLDBX8FBdgrNBmRC1W7kq3dwFCGdRNAhRL1ycnhE8"
  },
  {
    "place_id": "ChIJpecOnddnuw0RdbtUmfGbxck",
    "name": "Camping Skoura Amridil",
    "location": {
      "lat": 31.0498273,
      "lng": -6.5761911
    },
    "price_level": null,
    "photo_reference": "AWU5eFiUi_HodIsmmkdeEs_ZtR-oouhEbECtPKskz0VxvCkMlleDCuBiPGID02njSIkxXDnRVKdYjgb_kOJhtBsHe5h1kL8ytuTkawH9khCbIvcj9dLFLwkPjp0jyKevCMGLUCM6qwy4F3cEqLTAatg3IOOiKKbFRKinFm9HOjmUCxUiJBse"
  },
  {
    "place_id": "ChIJqUt7MBL_NQwRZaKGAn9Fios",
    "name": "Parking pour camping car",
    "location": {
      "lat": 28.0972628,
      "lng": -12.0495028
    },
    "price_level": null,
    "photo_reference": "AWU5eFiMxEUhSHAHwp1nIFnHFf2BxODVNl6G-X80WgIQof_WTQZGplS9YOlVHek26eRnS-Zj5Je0-d2hGXWpuBmTtmqxiuKYjolQiVTR3sgAWfjrQ19vGfQ__HsjZe344owFPEXaX1oFHTtMsEIpY7zrFMhIjd5WICDUEBdr8PktjMWz4hp7"
  },
  {
    "place_id": "ChIJ_TLRDIRBlw0R4iverh6Y8hM",
    "name": "Freedom camping car",
    "location": {
      "lat": 31.2166612,
      "lng": -4.0201455
    },
    "price_level": null,
    "photo_reference": null
  },
  {
    "place_id": "ChIJJ41t9BRtpw0RIRKKCPmyj0M",
    "name": "Amlago",
    "location": {
      "lat": 33.9803258,
      "lng": -6.8981605
    },
    "price_level": null,
    "photo_reference": null
  },
  {
    "place_id": "ChIJ1wzDqnexpw0RMfFDKiF3JZ8",
    "name": "Camping Said",
    "location": {
      "lat": 33.725516,
      "lng": -7.3368522
    },
    "price_level": null,
    "photo_reference": "AWU5eFiB6QWiVArQYYF-86en1cevAqrHREYl7O_S3pW00kCh0oLbe6Yroe-qkAqlhAtO40bevySfSDzOhdnlsr-Jh5ZC1VojOxzgfw8A0WN5TjJ7KdUSptDH2f8JMQ1LkdPtEiuwb6i1hroRGKVLIwB5AhpFG_hukXvU0rLQWWYvaLgPjoo"
  },
  {
    "place_id": "ChIJAQAAVOKAqA0RW5n9UWofHe0",
    "name": "Camping l'oasis",
    "location": {
      "lat": 33.5059312,
      "lng": -7.8425749
    },
    "price_level": null,
    "photo_reference": "AWU5eFgRg1qJH0_DcVWtEAev5TfzOPxhrYbWHor_H70DXvRCx0P8oYOGYbijmuU-kCRS6nBvG-92PxpQL7rktC1QgVRT5F3FjcrtRalDua3c0ARZw7jgZcdmXEQKzr_AEp3RTwsYbX6ueOqz9P4a5yn6T_8TsiLIG9LqAHlf1nT2BGibwQ5d"
  },
  {
    "place_id": "ChIJlyh8jI7bmQ0RQcQbDIDpcxQ",
    "name": "Camping-Caravaning Hakkou",
    "location": {
      "lat": 31.6732655,
      "lng": -4.2012576
    },
    "price_level": null,
    "photo_reference": "AWU5eFh0Y0UYbIKr5nuez2JPow0NMQHS8ElMbHMtOirL8UooxsyZxzmsaZkf02gKlrYNheoN90UEFdjD50DmOw7xKsG2u312sCyU-nBpCcUnaAEzK0uHhtzWcenE-oX_CBXNFgcwX574VPi0pL-xgvR8Y2U49MUAS8HIX7lm7e5dK6DDj2_U"
  },
  {
    "place_id": "ChIJqyyXjg-OtA0RKJx2hD8nSnE",
    "name": "Erkounte Park",
    "location": {
      "lat": 29.5084811,
      "lng": -10.0690777
    },
    "price_level": null,
    "photo_reference": "AWU5eFgGI80MI-ALP2R962jl96Nj0gWUZ5mbb5DnQB4MqHOtvI1jU70lim7oXj3Zo2hOr0CUw594Bqw055UWKTBnpPKieHUVhrMUDz2p5KDe_r_LCuQBAI-XrQFk9itcOktqO4NFW1vLQ5D_nhrLNUBGy55xGD02rSHc4s_6EF-aXeqBT4GL"
  },
  {
    "place_id": "ChIJWydy3L82vA0Ri8bXIEizBCM",
    "name": "Camping le Jardín de Zagora",
    "location": {
      "lat": 30.3285894,
      "lng": -5.8330299
    },
    "price_level": null,
    "photo_reference": "AWU5eFgNuunt4_7ONni21cdhgSbA0RUPgJSh9fYhZytsIKgD0K24mHSih9c7VvwkbZOqMmTCFrwnCYGO_B-kKtGgjtH9p6AMV_YfvpX3HL5l-FhanB9skJAVJvFhv2oUa7EcIo96Ja_1pHES-ZUbC0jlKtoMsCOGZaz6YLajKT_BzShJLnaG"
  },
  {
    "place_id": "ChIJA-cdN_0zpg0RSLp60ruQ0SU",
    "name": "البوشتاوية مجاهد 396",
    "location": {
      "lat": 33.523722,
      "lng": -7.5439942
    },
    "price_level": null,
    "photo_reference": "AWU5eFgHAZ_1Zj2FgVOxgpqeZtxGZMxzEUlshfi0ySa4Xe5_ez9mn7VdQyaiWF-BtXSf1Evzo2wGr831uXRgI2pIimkgveC1RruErgTf2rJFPIGn621tmld--IAKY87fRYOecZUiy41-M2PidWRHE-s6Tw1OOyIzFtIoaHLz2Uo0P-ki0jP_"
  },
  {
    "place_id": "ChIJDTziapJSsg0RaCIT3iOfpi8",
    "name": "Camping Terre d'Ocean",
    "location": {
      "lat": 30.56354129999999,
      "lng": -9.7417322
    },
    "price_level": null,
    "photo_reference": "AWU5eFhUcimyeQVN_EQfSotK0tsKUot3FMHdy1IZYdji3X80I8STi71XATXne-ICzZVglAwbEf5OEil4W5jJlwFWVzH2SXb2hMlv14c5ABgXl-_t6yn_072yO_hkZV-D1DAl72e51Dkvq193eMWK96PLkK8m3jXF5AtSM53d0gHI4T4M-4e5"
  },
  {
    "place_id": "ChIJcdMq6lkdqQ0RCJDK-J3-8RE",
    "name": "Parkplatz für Wohnmobile",
    "location": {
      "lat": 33.2447083,
      "lng": -8.488663299999999
    },
    "price_level": null,
    "photo_reference": "AWU5eFiwwau62S_HebjI8DZ2ahzvf7-d8Ib6s2Wvd39oqVk5MKLpzp_8-xEwg2S2-vjdPAB5IwX_MoKKXGFZ4vleGJfWpokSstEJWGja4cu78v4Qt8YFpBbW61W7EVFYj0uw4aiAxoY0VQ-g_-Dg-XI9cVzUb3x1mEA7aZE0HdhRUzOAEsyT"
  },
  {
    "place_id": "ChIJB79JkmWRrQ0R6kXJHNTL5Sg",
    "name": "Dar El Bernicha",
    "location": {
      "lat": 31.5307578,
      "lng": -9.6891046
    },
    "price_level": null,
    "photo_reference": "AWU5eFjsM8f6CBhkRv7ALgBRuB-7oVWWkK_HS5-EXlzWABzNFk2Ulo7x09DaNBJGHCFsopEkk2oMP8hX-DxLx3ADQ0jyp5MOxrD8-iSC9C6Zpr9IC_DBt3fwWdpBttlwFuoo4ZWPtAX6bIxKf0hkV1KUn6M_ZB-cOYzKbEu2pSpKXda60uuF"
  },
  {
    "place_id": "ChIJAzN29eaysw0RqrvB9Sfi4JU",
    "name": "Camping Atlantica d'Imourane",
    "location": {
      "lat": 30.5102071,
      "lng": -9.6832157
    },
    "price_level": null,
    "photo_reference": "AWU5eFjcs84XtHk84oVhc9Clvx_EkKSz5kM7aDHTpCZ9-4BuHDxnrz7GH8Vg_QTBUws6vQrCGV7r2___zsbKd4921fBBAHaKBRRh8UJc7iA_ff12eeEe5J92RM1iN_bp0FFbi0cz_VJiXvtG9L7XbUMWlWk5LXo3I9AWF3RCrL1E2U_2MhCN"
  },
  {
    "place_id": "ChIJkzkO0zIKSgwR-xk6smlU_sU",
    "name": "Area Sosta Camper - Ma Fatma",
    "location": {
      "lat": 28.2082972,
      "lng": -11.784192
    },
    "price_level": null,
    "photo_reference": "AWU5eFhuLKPVJpQ9MrbB2Viro1U_MEqAmwwh2ojlQv-HaFW6I2T_c7C-DHsuQbeIlcTNFdMAECaI1I1fPOZcJ7AVYMSvGO_y7on8APYEuouc7Q5t_4aqg9snZQVChdrW10kIObNgp74-gUozbN1D8S92Y2zZeo4rzRnCkg95agiTatF1iQ4m"
  },
  {
    "place_id": "ChIJ82t0bbs2vA0RKI30O1Acno8",
    "name": "Camping Oasis Palmier",
    "location": {
      "lat": 30.322263,
      "lng": -5.8267449
    },
    "price_level": null,
    "photo_reference": "AWU5eFiwNb1GitM9vw-orBmXDp0yl5QKWCsv9UpINF0eofVxXpT2-Y8TLgYaJHzSQJCR0RF8H--dAIEyoF5LWjm2aQt9E8NYJzh8Yl7OENTUl-dN1FGZQwbYwam-tt_3puWwSelAndPKfflHAFMLhYatFFwnWEY596wCNWPpflFgcseuNWUx"
  },
  {
    "place_id": "ChIJv677pfeUCw0Rp1YK6CQfpOI",
    "name": "Camping Echrigui",
    "location": {
      "lat": 35.47228620000001,
      "lng": -6.027882399999999
    },
    "price_level": null,
    "photo_reference": "AWU5eFhUoO1L2mxApVADjUcy_toWTdX89ODbP8izQ83Y7qOr3tulDuP5ua9-YQVTdAVhkHXgMw7I2NCoFv8fmO_bEhV7RtJvLPEcnEYDKzlwnt5VdyIlbck0LJkChXccbDrIhpqZa3MlC-XwabgiVkeoKYCMaRFaNSpD_D_P1jF1GWKOL2Z_"
  },
  {
    "place_id": "ChIJV8ae2Hxesg0R5y2J1sxG7OE",
    "name": "Camping Imsouane",
    "location": {
      "lat": 30.8463109,
      "lng": -9.8216302
    },
    "price_level": null,
    "photo_reference": "AWU5eFgvJGlukg1ej2jNNoECqU3tGSh40C0IFlYeGRkeqCzge49UFvO1iijD5j6vqcpKUZ-l8X1Sp5vnKzk0YVPKBzDtNIMWJCMqv3RQXWvRaHh4_GTgF923sS0Njw9A1L0c66HAR3I7MfYpc4L_8Fcfo-UY8v2HSvuNzOoOHH0_Hx3w-uai"
  },
  {
    "place_id": "ChIJXYHISBmErQ0Rs6WG8S8ZnBw",
    "name": "Area Sosta Camper - Sidi Kaouki",
    "location": {
      "lat": 31.3507959,
      "lng": -9.7946546
    },
    "price_level": null,
    "photo_reference": "AWU5eFhXL5bt63-h6CQ7dAfbzVBTL-EETfOSubpRU5OUORaCcgzBXjy3vdmDL4o8RssFAO0GUy7LvEq3oVDVHWumINHI_l3HzRo15zBhCWR0FaBP46krYJDenDZi6L5JwZmIs3N8ZM8re_-w4WpuDZi4sLFZd4p0EQQDycuUJMxKpkRpyGYs"
  },
  {
    "place_id": "ChIJKTIkQJOwpw0Ra3cqkqnF5JM",
    "name": "Camping L'Océan Bleu",
    "location": {
      "lat": 33.7376228,
      "lng": -7.3236907
    },
    "price_level": null,
    "photo_reference": "AWU5eFjtJTgaEglM2uC-eXotHzurV6ymOmOh1KonhC8cMDQEGB8gd1IUJmcT2YerJlfSaxfq5cKTyAFHtDw97xXxJ7X3_AIRgzLyBLdFzORYjsrpCrq6K0XLKOmewflTyHsA4aqjhqhFn5yWvMeh2KBc6EfaJPL5K3R7CDxHnlOV9BhAweI"
  },
  {
    "place_id": "ChIJ51D1ctHbuw0Rjaso0fivJXk",
    "name": "Camping Khayma Park Foum Zguid",
    "location": {
      "lat": 30.0798314,
      "lng": -6.8714884
    },
    "price_level": null,
    "photo_reference": "AWU5eFgTpg314JoWwPLz2iaOilfgYeESwRBkLGGQkAB7sNQ7RA2rALWJwEJwa4Hi7w1zRNesRLIvRcJuosWhGC0xWJxVUtCYVL4kGMqaL2XoURVdRMgdnesUWIqSXO6uzeXcsja1VCHQVRwPWBRHBPFJrmJH1DVnqlPzawnBhtNLXr4xsvPN"
  },
  {
    "place_id": "ChIJz6VGy3HNvA0R_MUphdZJWgw",
    "name": "Camperplaats",
    "location": {
      "lat": 31.4532146,
      "lng": -5.9675869
    },
    "price_level": null,
    "photo_reference": null
  },
  {
    "place_id": "ChIJCXo1eE_JCw0RLdTIjY6Csgo",
    "name": "Aire de Repos باحة الاستراحة",
    "location": {
      "lat": 35.161328,
      "lng": -6.1424261
    },
    "price_level": null,
    "photo_reference": "AWU5eFgqGNqAjTbDWKfDiZViz-vgVeBnM78_SDgPuzBUUnXvIDW9nVy9WotTuq8bmeZzpzgQiWAjq6OV3vNWxdqEX88-6gygbLNsPBPbySZbH0Rm6nFpm-8K5ZFPQB_6cItWs5cAdd_L8rvciPjI9j_c7I50QmiDO_W5Ij1KdWbVEm3MGYaY"
  }
]